timestamp(ms),VFR_HUD.airspeed,VFR_HUD.groundspeed,ATTITUDE.pitchspeed,ATTITUDE.yawspeed
22409.379459846008,0.02497023344039917,1.9387304782867432,0.0015717479400336742,-0.24000492691993713
22509.379459846008,0.02497023344039917,1.9387304782867432,0.0015717479400336742,-0.24000492691993713
22609.379459846008,0.02497023344039917,1.9387304782867432,0.0015717479400336742,-0.24000492691993713
22709.379459846008,0.02497023344039917,1.9387304782867432,0.0015717479400336742,-0.24000492691993713
22809.379459846008,0.02497023344039917,1.9387304782867432,0.0015717479400336742,-0.24000492691993713
22909.379459846008,0.02497023344039917,1.9387304782867432,0.0015717479400336742,-0.24000492691993713
23009.379459846008,0.02497023344039917,1.9387304782867432,0.0015717479400336742,-0.24000492691993713
23109.379459846008,0.022104572504758835,1.9083703756332397,0.00025902289780788124,-0.23689983785152435
23209.379459846008,0.022104572504758835,1.9083703756332397,0.00025902289780788124,-0.23689983785152435
23309.379459846008,0.022104572504758835,1.9083703756332397,0.00025902289780788124,-0.23689983785152435
23409.379459846008,0.022104572504758835,1.9083703756332397,0.00025902289780788124,-0.23689983785152435
23509.379459846008,0.022104572504758835,1.9083703756332397,0.00025902289780788124,-0.23689983785152435
23609.379459846008,0.022104572504758835,1.9083703756332397,0.00025902289780788124,-0.23689983785152435
23709.379459846008,0.022104572504758835,1.9083703756332397,0.00025902289780788124,-0.23689983785152435
23809.379459846008,0.022104572504758835,1.9083703756332397,0.00025902289780788124,-0.23689983785152435
23909.379459846008,0.022104572504758835,1.9083703756332397,0.00025902289780788124,-0.23689983785152435
24009.379459846008,0.022104572504758835,1.9083703756332397,0.00025902289780788124,-0.23689983785152435
24109.379459846008,0.022104572504758835,1.9083703756332397,0.00025902289780788124,-0.23689983785152435
24209.379459846008,0.022104572504758835,1.9083703756332397,0.00025902289780788124,-0.23689983785152435
24309.379459846008,0.022062916308641434,1.9072699546813965,0.003917467314749956,-0.23248806595802307
24409.379459846008,0.022062916308641434,1.9072699546813965,0.003917467314749956,-0.23248806595802307
24509.379459846008,0.022062916308641434,1.9072699546813965,0.003917467314749956,-0.23248806595802307
24609.379459846008,0.022062916308641434,1.9072699546813965,0.003917467314749956,-0.23248806595802307
24709.379459846008,0.022062916308641434,1.9072699546813965,0.003917467314749956,-0.23248806595802307
24809.379459846008,0.022062916308641434,1.9072699546813965,0.003917467314749956,-0.23248806595802307
24909.379459846008,0.022062916308641434,1.9072699546813965,0.003917467314749956,-0.23248806595802307
25009.379459846008,0.022062916308641434,1.9072699546813965,0.003917467314749956,-0.23248806595802307
25109.379459846008,0.022062916308641434,1.9072699546813965,0.003917467314749956,-0.23248806595802307
25209.379459846008,0.022062916308641434,1.9072699546813965,0.003917467314749956,-0.23248806595802307
25309.379459846008,0.022062916308641434,1.9072699546813965,0.003917467314749956,-0.23248806595802307
25409.379459846008,0.022062916308641434,1.9072699546813965,0.003917467314749956,-0.23248806595802307
25509.379459846008,0.022062916308641434,1.9072699546813965,0.003917467314749956,-0.23248806595802307
25609.379459846008,0.022062916308641434,1.9072699546813965,0.003917467314749956,-0.23248806595802307
25709.379459846008,0.022062916308641434,1.9072699546813965,0.003917467314749956,-0.23248806595802307
25809.379459846008,0.022062916308641434,1.9072699546813965,0.003917467314749956,-0.23248806595802307
25909.379459846008,0.022062916308641434,1.9072699546813965,0.003917467314749956,-0.23248806595802307
26009.379459846008,0.022062916308641434,1.9072699546813965,0.003917467314749956,-0.23248806595802307
26109.379459846008,0.022062916308641434,1.9072699546813965,0.003917467314749956,-0.23248806595802307
26209.379459846008,0.022062916308641434,1.9072699546813965,0.003917467314749956,-0.23248806595802307
26309.379459846008,0.022062916308641434,1.9072699546813965,0.003917467314749956,-0.23248806595802307
26409.379459846008,0.022062916308641434,1.9072699546813965,0.003917467314749956,-0.23248806595802307
26509.379459846008,0.022061705589294434,1.735615849494934,0.03469489514827728,-0.24764443933963776
26609.379459846008,2.630807638168335,1.5755281448364258,0.004453902132809159,-0.1559487283229828
26709.379459846008,3.139364004135132,1.5891036987304688,-0.12503737211227417,-0.1016639694571495
26809.379459846008,3.139364004135132,1.5891036987304688,-0.12503737211227417,-0.1016639694571495
26909.379459846008,3.139364004135132,1.5891036987304688,-0.12503737211227417,-0.1016639694571495
27009.379459846008,3.139364004135132,1.5891036987304688,-0.12503737211227417,-0.1016639694571495
27109.379459846008,3.139364004135132,1.5891036987304688,-0.12503737211227417,-0.1016639694571495
27209.379459846008,3.139364004135132,1.5891036987304688,-0.12503737211227417,-0.1016639694571495
27309.379459846008,3.139364004135132,1.5891036987304688,-0.12503737211227417,-0.1016639694571495
27409.379459846008,3.139364004135132,1.5891036987304688,-0.12503737211227417,-0.1016639694571495
27509.379459846008,3.139364004135132,1.5891036987304688,-0.12503737211227417,-0.1016639694571495
27609.379459846008,3.139364004135132,1.5891036987304688,-0.12503737211227417,-0.1016639694571495
27709.379459846008,3.139364004135132,1.5891036987304688,-0.12503737211227417,-0.1016639694571495
27809.379459846008,3.8079185485839844,2.177971124649048,0.028435926884412766,-0.03274321183562279
27909.379459846008,3.9045119285583496,2.337524890899658,0.047418251633644104,-0.054894644767045975
28009.379459846008,3.9045119285583496,2.337524890899658,0.047418251633644104,-0.054894644767045975
28109.379459846008,3.9045119285583496,2.337524890899658,0.047418251633644104,-0.054894644767045975
28209.379459846008,3.9045119285583496,2.337524890899658,0.047418251633644104,-0.054894644767045975
28309.379459846008,3.9045119285583496,2.337524890899658,0.047418251633644104,-0.054894644767045975
28409.379459846008,3.9045119285583496,2.337524890899658,0.047418251633644104,-0.054894644767045975
28509.379459846008,3.9045119285583496,2.337524890899658,0.047418251633644104,-0.054894644767045975
28609.379459846008,3.9045119285583496,2.337524890899658,0.047418251633644104,-0.054894644767045975
28709.379459846008,3.9045119285583496,2.337524890899658,0.047418251633644104,-0.054894644767045975
28809.379459846008,3.9045119285583496,2.337524890899658,0.047418251633644104,-0.054894644767045975
28909.379459846008,3.9045119285583496,2.337524890899658,0.047418251633644104,-0.054894644767045975
29009.379459846008,3.8520023822784424,2.654930353164673,0.03699485957622528,-0.04857078194618225
29109.379459846008,3.9256434440612793,2.6429717540740967,0.03130604326725006,-0.024335715919733047
29209.379459846008,3.9256434440612793,2.6429717540740967,0.03130604326725006,-0.024335715919733047
29309.379459846008,3.9256434440612793,2.6429717540740967,0.03130604326725006,-0.024335715919733047
29409.379459846008,3.9256434440612793,2.6429717540740967,0.03130604326725006,-0.024335715919733047
29509.379459846008,3.9256434440612793,2.6429717540740967,0.03130604326725006,-0.024335715919733047
29609.379459846008,3.9256434440612793,2.6429717540740967,0.03130604326725006,-0.024335715919733047
29709.379459846008,3.9256434440612793,2.6429717540740967,0.03130604326725006,-0.024335715919733047
29809.379459846008,3.9256434440612793,2.6429717540740967,0.03130604326725006,-0.024335715919733047
29909.379459846008,3.9256434440612793,2.6429717540740967,0.03130604326725006,-0.024335715919733047
30009.379459846008,3.9256434440612793,2.6429717540740967,0.03130604326725006,-0.024335715919733047
30109.379459846008,3.9256434440612793,2.6429717540740967,0.03130604326725006,-0.024335715919733047
30209.379459846008,3.9256434440612793,2.6429717540740967,0.03130604326725006,-0.024335715919733047
30309.379459846008,3.9714250564575195,2.6073098182678223,0.018428821116685867,0.0009184544906020164
30409.379459846008,3.5759334564208984,2.2694430351257324,-0.019757019355893135,0.04153873771429062
30509.379459846008,3.5759334564208984,2.2694430351257324,-0.019757019355893135,0.04153873771429062
30609.379459846008,3.5759334564208984,2.2694430351257324,-0.019757019355893135,0.04153873771429062
30709.379459846008,3.5759334564208984,2.2694430351257324,-0.019757019355893135,0.04153873771429062
30809.379459846008,3.5759334564208984,2.2694430351257324,-0.019757019355893135,0.04153873771429062
30909.379459846008,3.5759334564208984,2.2694430351257324,-0.019757019355893135,0.04153873771429062
31009.379459846008,3.5759334564208984,2.2694430351257324,-0.019757019355893135,0.04153873771429062
31109.379459846008,3.5759334564208984,2.2694430351257324,-0.019757019355893135,0.04153873771429062
31209.379459846008,3.5759334564208984,2.2694430351257324,-0.019757019355893135,0.04153873771429062
31309.379459846008,3.5759334564208984,2.2694430351257324,-0.019757019355893135,0.04153873771429062
31409.379459846008,3.5759334564208984,2.2694430351257324,-0.019757019355893135,0.04153873771429062
31509.379459846008,3.808945655822754,1.8227165937423706,-0.03175003081560135,-0.05555655434727669
31609.379459846008,3.808945655822754,1.8227165937423706,-0.03175003081560135,-0.05555655434727669
31709.379459846008,3.1968116760253906,1.7543538808822632,-0.03541500121355057,-0.08439727127552032
31809.379459846008,3.1968116760253906,1.7543538808822632,-0.03541500121355057,-0.08439727127552032
31909.379459846008,3.1968116760253906,1.7543538808822632,-0.03541500121355057,-0.08439727127552032
32009.379459846008,3.1968116760253906,1.7543538808822632,-0.03541500121355057,-0.08439727127552032
32109.379459846008,3.1968116760253906,1.7543538808822632,-0.03541500121355057,-0.08439727127552032
32209.379459846008,3.1968116760253906,1.7543538808822632,-0.03541500121355057,-0.08439727127552032
32309.379459846008,3.1968116760253906,1.7543538808822632,-0.03541500121355057,-0.08439727127552032
32409.379459846008,3.1968116760253906,1.7543538808822632,-0.03541500121355057,-0.08439727127552032
32509.379459846008,3.1968116760253906,1.7543538808822632,-0.03541500121355057,-0.08439727127552032
32609.379459846008,3.1968116760253906,1.7543538808822632,-0.03541500121355057,-0.08439727127552032
32709.379459846008,3.1968116760253906,1.7543538808822632,-0.03541500121355057,-0.08439727127552032
32809.37945984601,3.1968116760253906,1.7543538808822632,-0.03541500121355057,-0.08439727127552032
32909.37945984601,3.312168836593628,1.677689552307129,-0.04173983260989189,-0.2225843369960785
33009.37945984601,3.2683417797088623,1.7306256294250488,-0.05131649971008301,-0.2591831684112549
33109.37945984601,3.2683417797088623,1.7306256294250488,-0.05131649971008301,-0.2591831684112549
33209.37945984601,3.2683417797088623,1.7306256294250488,-0.05131649971008301,-0.2591831684112549
33309.37945984601,3.2683417797088623,1.7306256294250488,-0.05131649971008301,-0.2591831684112549
33409.37945984601,3.2683417797088623,1.7306256294250488,-0.05131649971008301,-0.2591831684112549
33509.37945984601,3.2683417797088623,1.7306256294250488,-0.05131649971008301,-0.2591831684112549
33609.37945984601,3.2683417797088623,1.7306256294250488,-0.05131649971008301,-0.2591831684112549
33709.37945984601,3.2683417797088623,1.7306256294250488,-0.05131649971008301,-0.2591831684112549
33809.37945984601,3.2683417797088623,1.7306256294250488,-0.05131649971008301,-0.2591831684112549
33909.37945984601,3.2683417797088623,1.7306256294250488,-0.05131649971008301,-0.2591831684112549
34009.37945984601,3.2683417797088623,1.7306256294250488,-0.05131649971008301,-0.2591831684112549
34109.37945984601,3.313642978668213,1.8111131191253662,-0.01928045228123665,-0.29451611638069153
34209.37945984601,3.86037540435791,2.391378402709961,0.040151190012693405,-0.3316076993942261
34309.37945984601,3.86037540435791,2.391378402709961,0.042306795716285706,-0.28663310408592224
34409.37945984601,3.86037540435791,2.391378402709961,0.042306795716285706,-0.28663310408592224
34509.37945984601,3.86037540435791,2.391378402709961,0.042306795716285706,-0.28663310408592224
34609.37945984601,3.86037540435791,2.391378402709961,0.042306795716285706,-0.28663310408592224
34709.37945984601,3.86037540435791,2.391378402709961,0.042306795716285706,-0.28663310408592224
34809.37945984601,3.86037540435791,2.391378402709961,0.042306795716285706,-0.28663310408592224
34909.37945984601,3.86037540435791,2.391378402709961,0.042306795716285706,-0.28663310408592224
35009.37945984601,3.86037540435791,2.391378402709961,0.042306795716285706,-0.28663310408592224
35109.37945984601,3.86037540435791,2.391378402709961,0.042306795716285706,-0.28663310408592224
35209.37945984601,3.86037540435791,2.391378402709961,0.042306795716285706,-0.28663310408592224
35309.37945984601,3.86037540435791,2.391378402709961,0.042306795716285706,-0.28663310408592224
35409.37945984601,3.9540092945098877,2.8798012733459473,0.025501683354377747,-0.04069237411022186
35509.37945984601,3.9540092945098877,2.8798012733459473,0.025830242782831192,-0.006371128372848034
35609.37945984601,3.9750280380249023,2.9292244911193848,0.025830242782831192,-0.006371128372848034
35709.37945984601,3.9750280380249023,2.9292244911193848,0.025830242782831192,-0.006371128372848034
35809.37945984601,3.9750280380249023,2.9292244911193848,0.025830242782831192,-0.006371128372848034
35909.37945984601,3.9750280380249023,2.9292244911193848,0.025830242782831192,-0.006371128372848034
36009.37945984601,3.9750280380249023,2.9292244911193848,0.025830242782831192,-0.006371128372848034
36109.37945984601,3.9750280380249023,2.9292244911193848,0.025830242782831192,-0.006371128372848034
36209.37945984601,3.9750280380249023,2.9292244911193848,0.025830242782831192,-0.006371128372848034
36309.37945984601,3.9750280380249023,2.9292244911193848,0.025830242782831192,-0.006371128372848034
36409.37945984601,3.9750280380249023,2.9292244911193848,0.025830242782831192,-0.006371128372848034
36509.37945984601,3.9750280380249023,2.9292244911193848,0.025830242782831192,-0.006371128372848034
36609.37945984601,3.9750280380249023,2.9292244911193848,0.025830242782831192,-0.006371128372848034
36709.37945984601,3.991748571395874,2.9648799896240234,0.021425431594252586,0.031263891607522964
36809.37945984601,3.9948408603668213,2.8852803707122803,0.016322236508131027,0.07399064302444458
36909.37945984601,3.9948408603668213,2.8852803707122803,0.016322236508131027,0.07399064302444458
37009.37945984601,3.9948408603668213,2.8852803707122803,0.016322236508131027,0.07399064302444458
37109.37945984601,3.9948408603668213,2.8852803707122803,0.016322236508131027,0.07399064302444458
37209.37945984601,3.9948408603668213,2.8852803707122803,0.016322236508131027,0.07399064302444458
37309.37945984601,3.9948408603668213,2.8852803707122803,0.016322236508131027,0.07399064302444458
37409.37945984601,3.9948408603668213,2.8852803707122803,0.016322236508131027,0.07399064302444458
37509.37945984601,3.9948408603668213,2.8852803707122803,0.016322236508131027,0.07399064302444458
37609.37945984601,3.9948408603668213,2.8852803707122803,0.016322236508131027,0.07399064302444458
37709.37945984601,3.9948408603668213,2.8852803707122803,0.016322236508131027,0.07399064302444458
37809.37945984601,3.9948408603668213,2.8852803707122803,0.016322236508131027,0.07399064302444458
37909.37945984601,3.9950714111328125,2.7962887287139893,0.018367819488048553,0.09265924245119095
38009.37945984601,3.9951140880584717,2.748072624206543,-0.38596615195274353,0.1912742555141449
38109.37945984601,3.9951140880584717,2.748072624206543,-0.38596615195274353,0.1912742555141449
38209.37945984601,3.9951140880584717,2.748072624206543,-0.38596615195274353,0.1912742555141449
38309.37945984601,3.9951140880584717,2.748072624206543,-0.38596615195274353,0.1912742555141449
38409.37945984601,3.9951140880584717,2.748072624206543,-0.38596615195274353,0.1912742555141449
38509.37945984601,3.9951140880584717,2.748072624206543,-0.38596615195274353,0.1912742555141449
38609.37945984601,3.9951140880584717,2.748072624206543,-0.38596615195274353,0.1912742555141449
38709.37945984601,3.9951140880584717,2.748072624206543,-0.38596615195274353,0.1912742555141449
38809.37945984601,3.9951140880584717,2.748072624206543,-0.38596615195274353,0.1912742555141449
38909.37945984601,3.9951140880584717,2.748072624206543,-0.38596615195274353,0.1912742555141449
39009.37945984601,3.9951140880584717,2.748072624206543,-0.38596615195274353,0.1912742555141449
39109.37945984601,3.995117664337158,4.425755500793457,-0.0353168323636055,0.31776365637779236
39209.37945984601,5.142664909362793,6.515499114990234,0.14516085386276245,0.239349827170372
39309.37945984601,5.142664909362793,6.515499114990234,0.14516085386276245,0.239349827170372
39409.37945984601,5.142664909362793,6.515499114990234,0.14516085386276245,0.239349827170372
39509.37945984601,5.142664909362793,6.515499114990234,0.14516085386276245,0.239349827170372
39609.37945984601,5.142664909362793,6.515499114990234,0.14516085386276245,0.239349827170372
39709.37945984601,5.142664909362793,6.515499114990234,0.14516085386276245,0.239349827170372
39809.37945984601,5.142664909362793,6.515499114990234,0.14516085386276245,0.239349827170372
39909.37945984601,5.142664909362793,6.515499114990234,0.14516085386276245,0.239349827170372
40009.37945984601,5.142664909362793,6.515499114990234,0.14516085386276245,0.239349827170372
40109.37945984601,5.142664909362793,6.515499114990234,0.14516085386276245,0.239349827170372
40209.37945984601,5.142664909362793,6.515499114990234,0.14516085386276245,0.239349827170372
40309.37945984601,10.085408210754395,11.559409141540527,0.09366603195667267,0.051726583391427994
40409.37945984601,10.832989692687988,12.473114013671875,0.17745278775691986,0.0957179069519043
40509.37945984601,10.832989692687988,12.473114013671875,0.17745278775691986,0.0957179069519043
40609.37945984601,10.832989692687988,12.473114013671875,0.17745278775691986,0.0957179069519043
40709.37945984601,10.832989692687988,12.473114013671875,0.17745278775691986,0.0957179069519043
40809.37945984601,10.832989692687988,12.473114013671875,0.17745278775691986,0.0957179069519043
40909.37945984601,10.832989692687988,12.473114013671875,0.17745278775691986,0.0957179069519043
41009.37945984601,10.832989692687988,12.473114013671875,0.17745278775691986,0.0957179069519043
41109.37945984601,10.832989692687988,12.473114013671875,0.17745278775691986,0.0957179069519043
41209.37945984601,10.832989692687988,12.473114013671875,0.17745278775691986,0.0957179069519043
41309.37945984601,10.832989692687988,12.473114013671875,0.17745278775691986,0.0957179069519043
41409.37945984601,13.250481605529785,14.757356643676758,-0.04369550198316574,0.1597972959280014
41509.37945984601,15.38743782043457,16.179927825927734,0.2050335854291916,0.002887257607653751
41609.37945984601,16.09921646118164,16.579288482666016,0.23497441411018372,0.004095594864338636
41709.37945984601,16.09921646118164,16.579288482666016,0.23497441411018372,0.004095594864338636
41809.37945984601,16.09921646118164,16.579288482666016,0.23497441411018372,0.004095594864338636
41909.37945984601,16.09921646118164,16.579288482666016,0.23497441411018372,0.004095594864338636
42009.37945984601,16.09921646118164,16.579288482666016,0.23497441411018372,0.004095594864338636
42109.37945984601,16.09921646118164,16.579288482666016,0.23497441411018372,0.004095594864338636
42209.37945984601,16.09921646118164,16.579288482666016,0.23497441411018372,0.004095594864338636
42309.37945984601,16.09921646118164,16.579288482666016,0.23497441411018372,0.004095594864338636
42409.37945984601,16.09921646118164,16.579288482666016,0.23497441411018372,0.004095594864338636
42509.37945984601,16.09921646118164,16.579288482666016,0.23497441411018372,0.004095594864338636
42609.37945984601,16.09921646118164,16.579288482666016,0.23497441411018372,0.004095594864338636
42709.37945984601,18.912195205688477,19.249713897705078,-0.5454685688018799,0.01838032528758049
42809.37945984601,18.715394973754883,18.87914276123047,-0.11117270588874817,0.15515616536140442
42909.37945984601,18.715394973754883,18.87914276123047,-0.11117270588874817,0.15515616536140442
43009.37945984601,18.715394973754883,18.87914276123047,-0.11117270588874817,0.15515616536140442
43109.37945984601,18.715394973754883,18.87914276123047,-0.11117270588874817,0.15515616536140442
43209.37945984601,18.715394973754883,18.87914276123047,-0.11117270588874817,0.15515616536140442
43309.37945984601,18.715394973754883,18.87914276123047,-0.11117270588874817,0.15515616536140442
43409.37945984601,18.715394973754883,18.87914276123047,-0.11117270588874817,0.15515616536140442
43509.37945984601,18.715394973754883,18.87914276123047,-0.11117270588874817,0.15515616536140442
43609.37945984601,18.715394973754883,18.87914276123047,-0.11117270588874817,0.15515616536140442
43709.37945984601,18.715394973754883,18.87914276123047,-0.11117270588874817,0.15515616536140442
43809.37945984601,18.715394973754883,18.87914276123047,-0.11117270588874817,0.15515616536140442
43909.37945984601,18.715394973754883,18.87914276123047,-0.11117270588874817,0.15515616536140442
44009.37945984601,17.926301956176758,17.91988182067871,0.05777876079082489,0.1692575365304947
44109.37945984601,17.926301956176758,17.91988182067871,0.05777876079082489,0.1692575365304947
44209.37945984601,17.872953414916992,17.829103469848633,0.06543781608343124,0.16282722353935242
44309.37945984601,17.872953414916992,17.829103469848633,0.06543781608343124,0.16282722353935242
44409.37945984601,17.872953414916992,17.829103469848633,0.06543781608343124,0.16282722353935242
44509.37945984601,17.872953414916992,17.829103469848633,0.06543781608343124,0.16282722353935242
44609.37945984601,17.872953414916992,17.829103469848633,0.06543781608343124,0.16282722353935242
44709.37945984601,17.872953414916992,17.829103469848633,0.06543781608343124,0.16282722353935242
44809.37945984601,17.872953414916992,17.829103469848633,0.06543781608343124,0.16282722353935242
44909.37945984601,17.872953414916992,17.829103469848633,0.06543781608343124,0.16282722353935242
45009.37945984601,17.872953414916992,17.829103469848633,0.06543781608343124,0.16282722353935242
45109.37945984601,17.872953414916992,17.829103469848633,0.06543781608343124,0.16282722353935242
45209.37945984601,17.872953414916992,17.829103469848633,0.06543781608343124,0.16282722353935242
45309.37945984601,17.659465789794922,17.38252067565918,0.0732254832983017,0.17074860632419586
45409.37945984601,17.592782974243164,17.2337646484375,0.07005947828292847,0.16833271086215973
45509.37945984601,17.592782974243164,17.2337646484375,0.07005947828292847,0.16833271086215973
45609.37945984601,17.592782974243164,17.2337646484375,0.07005947828292847,0.16833271086215973
45709.37945984601,17.592782974243164,17.2337646484375,0.07005947828292847,0.16833271086215973
45809.37945984601,17.592782974243164,17.2337646484375,0.07005947828292847,0.16833271086215973
45909.37945984601,17.592782974243164,17.2337646484375,0.07005947828292847,0.16833271086215973
46009.37945984601,17.592782974243164,17.2337646484375,0.07005947828292847,0.16833271086215973
46109.37945984601,17.592782974243164,17.2337646484375,0.07005947828292847,0.16833271086215973
46209.37945984601,17.592782974243164,17.2337646484375,0.07005947828292847,0.16833271086215973
46309.37945984601,17.592782974243164,17.2337646484375,0.07005947828292847,0.16833271086215973
46409.37945984601,17.592782974243164,17.2337646484375,0.07005947828292847,0.16833271086215973
46509.37945984601,17.592782974243164,17.2337646484375,0.07005947828292847,0.16833271086215973
46609.37945984601,17.028099060058594,16.509859085083008,0.07102499902248383,0.17902657389640808
46709.37945984601,17.028099060058594,16.509859085083008,0.07102499902248383,0.17902657389640808
46809.37945984601,17.028099060058594,16.509859085083008,0.07102499902248383,0.17902657389640808
46909.37945984601,17.028099060058594,16.509859085083008,0.07102499902248383,0.17902657389640808
47009.37945984601,17.028099060058594,16.509859085083008,0.07102499902248383,0.17902657389640808
47109.37945984601,17.028099060058594,16.509859085083008,0.07102499902248383,0.17902657389640808
47209.37945984601,17.028099060058594,16.509859085083008,0.07102499902248383,0.17902657389640808
47309.37945984601,17.028099060058594,16.509859085083008,0.07102499902248383,0.17902657389640808
47409.37945984601,17.028099060058594,16.509859085083008,0.07102499902248383,0.17902657389640808
47509.37945984601,17.028099060058594,16.509859085083008,0.07102499902248383,0.17902657389640808
47609.37945984601,17.028099060058594,16.509859085083008,0.07102499902248383,0.17902657389640808
47709.37945984601,17.028099060058594,16.509859085083008,0.07102499902248383,0.17902657389640808
47809.37945984601,16.43280792236328,16.126558303833008,0.08056874573230743,0.18861979246139526
47909.37945984601,16.43280792236328,16.126558303833008,0.08056874573230743,0.18861979246139526
48009.37945984601,16.43280792236328,16.126558303833008,0.07393096387386322,0.18921247124671936
48109.37945984601,16.37261390686035,16.083904266357422,0.07393096387386322,0.18921247124671936
48209.37945984601,16.37261390686035,16.083904266357422,0.07393096387386322,0.18921247124671936
48309.37945984601,16.37261390686035,16.083904266357422,0.07393096387386322,0.18921247124671936
48409.37945984601,16.37261390686035,16.083904266357422,0.07393096387386322,0.18921247124671936
48509.37945984601,16.37261390686035,16.083904266357422,0.07393096387386322,0.18921247124671936
48609.37945984601,16.37261390686035,16.083904266357422,0.07393096387386322,0.18921247124671936
48709.37945984601,16.37261390686035,16.083904266357422,0.07393096387386322,0.18921247124671936
48809.37945984601,16.37261390686035,16.083904266357422,0.07393096387386322,0.18921247124671936
48909.37945984601,16.37261390686035,16.083904266357422,0.07393096387386322,0.18921247124671936
49009.37945984601,16.37261390686035,16.083904266357422,0.07393096387386322,0.18921247124671936
49109.37945984601,16.37261390686035,16.083904266357422,0.07393096387386322,0.18921247124671936
49209.37945984601,16.209339141845703,15.927824974060059,0.08088181167840958,0.18885116279125214
49309.37945984601,16.09290885925293,15.887800216674805,0.07747593522071838,0.18936005234718323
49409.37945984601,16.09290885925293,15.887800216674805,0.07747593522071838,0.18936005234718323
49509.37945984601,16.09290885925293,15.887800216674805,0.07747593522071838,0.18936005234718323
49609.37945984601,16.09290885925293,15.887800216674805,0.07747593522071838,0.18936005234718323
49709.37945984601,16.09290885925293,15.887800216674805,0.07747593522071838,0.18936005234718323
49809.37945984601,16.09290885925293,15.887800216674805,0.07747593522071838,0.18936005234718323
49909.37945984601,16.09290885925293,15.887800216674805,0.07747593522071838,0.18936005234718323
50009.37945984601,16.09290885925293,15.887800216674805,0.07747593522071838,0.18936005234718323
50109.37945984601,16.09290885925293,15.887800216674805,0.07747593522071838,0.18936005234718323
50209.37945984601,16.09290885925293,15.887800216674805,0.07747593522071838,0.18936005234718323
50309.37945984601,16.09290885925293,15.887800216674805,0.07747593522071838,0.18936005234718323
50409.37945984601,16.09290885925293,15.887800216674805,0.07747593522071838,0.18936005234718323
50509.37945984601,15.811052322387695,15.639266967773438,0.06829394400119781,0.18484637141227722
50609.37945984601,15.811052322387695,15.639266967773438,0.06829394400119781,0.18484637141227722
50709.37945984601,15.811052322387695,15.639266967773438,0.06829394400119781,0.18484637141227722
50809.37945984601,15.811052322387695,15.639266967773438,0.06829394400119781,0.18484637141227722
50909.37945984601,15.811052322387695,15.639266967773438,0.06829394400119781,0.18484637141227722
51009.37945984601,15.811052322387695,15.639266967773438,0.06829394400119781,0.18484637141227722
51109.37945984601,15.811052322387695,15.639266967773438,0.06829394400119781,0.18484637141227722
51209.37945984601,15.811052322387695,15.639266967773438,0.06829394400119781,0.18484637141227722
51309.37945984601,15.811052322387695,15.639266967773438,0.06829394400119781,0.18484637141227722
51409.37945984601,15.811052322387695,15.639266967773438,0.06829394400119781,0.18484637141227722
51509.37945984601,15.811052322387695,15.639266967773438,0.06829394400119781,0.18484637141227722
51609.37945984601,15.538774490356445,15.516392707824707,0.07192522287368774,0.18788987398147583
51709.37945984601,15.349984169006348,15.474393844604492,0.07536014914512634,0.1879834532737732
51809.37945984601,15.349984169006348,15.474393844604492,0.07536014914512634,0.1879834532737732
51909.37945984601,15.349984169006348,15.474393844604492,0.07536014914512634,0.1879834532737732
52009.37945984601,15.349984169006348,15.474393844604492,0.07536014914512634,0.1879834532737732
52109.37945984601,15.349984169006348,15.474393844604492,0.07536014914512634,0.1879834532737732
52209.37945984601,15.349984169006348,15.474393844604492,0.07536014914512634,0.1879834532737732
52309.37945984601,15.349984169006348,15.474393844604492,0.07536014914512634,0.1879834532737732
52409.37945984601,15.349984169006348,15.474393844604492,0.07536014914512634,0.1879834532737732
52509.37945984601,15.349984169006348,15.474393844604492,0.07536014914512634,0.1879834532737732
52609.37945984601,15.349984169006348,15.474393844604492,0.07536014914512634,0.1879834532737732
52709.37945984601,15.349984169006348,15.474393844604492,0.07536014914512634,0.1879834532737732
52809.37945984601,15.360774040222168,15.436105728149414,0.07850821316242218,0.19277429580688477
52909.37945984601,15.198431015014648,15.282384872436523,0.07726997137069702,0.19417089223861694
53009.37945984601,15.198431015014648,15.282384872436523,0.07726997137069702,0.19417089223861694
53109.37945984601,15.198431015014648,15.282384872436523,0.07726997137069702,0.19417089223861694
53209.37945984601,15.198431015014648,15.282384872436523,0.07726997137069702,0.19417089223861694
53309.37945984601,15.198431015014648,15.282384872436523,0.07726997137069702,0.19417089223861694
53409.37945984601,15.198431015014648,15.282384872436523,0.07726997137069702,0.19417089223861694
53509.37945984601,15.198431015014648,15.282384872436523,0.07726997137069702,0.19417089223861694
53609.37945984601,15.198431015014648,15.282384872436523,0.07726997137069702,0.19417089223861694
53709.37945984601,15.198431015014648,15.282384872436523,0.07726997137069702,0.19417089223861694
53809.37945984601,15.198431015014648,15.282384872436523,0.07726997137069702,0.19417089223861694
53909.37945984601,15.198431015014648,15.282384872436523,0.07726997137069702,0.19417089223861694
54009.37945984601,15.01359748840332,15.032317161560059,0.07064153254032135,0.1952720433473587
54109.37945984601,14.787233352661133,14.970520973205566,0.07193310558795929,0.19639012217521667
54209.37945984601,14.787233352661133,14.970520973205566,0.07193310558795929,0.19639012217521667
54309.37945984601,14.787233352661133,14.970520973205566,0.07193310558795929,0.19639012217521667
54409.37945984601,14.787233352661133,14.970520973205566,0.07193310558795929,0.19639012217521667
54509.37945984601,14.787233352661133,14.970520973205566,0.07193310558795929,0.19639012217521667
54609.37945984601,14.787233352661133,14.970520973205566,0.07193310558795929,0.19639012217521667
54709.37945984601,14.787233352661133,14.970520973205566,0.07193310558795929,0.19639012217521667
54809.37945984601,14.787233352661133,14.970520973205566,0.07193310558795929,0.19639012217521667
54909.37945984601,14.787233352661133,14.970520973205566,0.07193310558795929,0.19639012217521667
55009.37945984601,14.787233352661133,14.970520973205566,0.07193310558795929,0.19639012217521667
55109.37945984601,14.787233352661133,14.970520973205566,0.07193310558795929,0.19639012217521667
55209.37945984601,14.882461547851562,14.69888973236084,0.07185856252908707,0.19684600830078125
55309.37945984601,14.882461547851562,14.69888973236084,0.07185856252908707,0.19684600830078125
55409.37945984601,14.882461547851562,14.69888973236084,0.07185856252908707,0.19684600830078125
55509.37945984601,14.882461547851562,14.69888973236084,0.07185856252908707,0.19684600830078125
55609.37945984601,14.882461547851562,14.69888973236084,0.07185856252908707,0.19684600830078125
55709.37945984601,14.882461547851562,14.69888973236084,0.07185856252908707,0.19684600830078125
55809.37945984601,14.882461547851562,14.69888973236084,0.07185856252908707,0.19684600830078125
55909.37945984601,14.882461547851562,14.69888973236084,0.07185856252908707,0.19684600830078125
56009.37945984601,14.882461547851562,14.69888973236084,0.07185856252908707,0.19684600830078125
56109.37945984601,14.882461547851562,14.69888973236084,0.07185856252908707,0.19684600830078125
56209.37945984601,14.882461547851562,14.69888973236084,0.07185856252908707,0.19684600830078125
56309.37945984601,14.882461547851562,14.69888973236084,0.07185856252908707,0.19684600830078125
56409.37945984601,14.882461547851562,14.69888973236084,0.07185856252908707,0.19684600830078125
56509.37945984601,14.470173835754395,14.214008331298828,0.0714004710316658,0.20542757213115692
56609.37945984601,14.470173835754395,14.214008331298828,0.0714004710316658,0.20542757213115692
56709.37945984601,14.470173835754395,14.214008331298828,0.0714004710316658,0.20542757213115692
56809.37945984601,14.470173835754395,14.214008331298828,0.0714004710316658,0.20542757213115692
56909.37945984601,14.470173835754395,14.214008331298828,0.0714004710316658,0.20542757213115692
57009.37945984601,14.470173835754395,14.214008331298828,0.0714004710316658,0.20542757213115692
57109.37945984601,14.470173835754395,14.214008331298828,0.0714004710316658,0.20542757213115692
57209.37945984601,14.470173835754395,14.214008331298828,0.0714004710316658,0.20542757213115692
57309.37945984601,14.470173835754395,14.214008331298828,0.0714004710316658,0.20542757213115692
57409.37945984601,14.470173835754395,14.214008331298828,0.0714004710316658,0.20542757213115692
57509.37945984601,14.470173835754395,14.214008331298828,0.0714004710316658,0.20542757213115692
57609.37945984601,13.886724472045898,14.055335998535156,0.07828336209058762,0.21090394258499146
57709.37945984601,14.068272590637207,14.028301239013672,0.07662291079759598,0.21261194348335266
57809.37945984601,14.068272590637207,14.028301239013672,0.07662291079759598,0.21261194348335266
57909.37945984601,14.068272590637207,14.028301239013672,0.07662291079759598,0.21261194348335266
58009.37945984601,14.068272590637207,14.028301239013672,0.07662291079759598,0.21261194348335266
58109.37945984601,14.068272590637207,14.028301239013672,0.07662291079759598,0.21261194348335266
58209.37945984601,14.068272590637207,14.028301239013672,0.07662291079759598,0.21261194348335266
58309.37945984601,14.068272590637207,14.028301239013672,0.07662291079759598,0.21261194348335266
58409.37945984601,14.068272590637207,14.028301239013672,0.07662291079759598,0.21261194348335266
58509.37945984601,14.068272590637207,14.028301239013672,0.07662291079759598,0.21261194348335266
58609.37945984601,14.068272590637207,14.028301239013672,0.07662291079759598,0.21261194348335266
58709.37945984601,14.068272590637207,14.028301239013672,0.07662291079759598,0.21261194348335266
58809.37945984601,13.951966285705566,13.971571922302246,0.07987748086452484,0.2081756740808487
58909.37945984601,13.758801460266113,13.766949653625488,0.07348502427339554,0.21391795575618744
59009.37945984601,13.758801460266113,13.766949653625488,0.07348502427339554,0.21391795575618744
59109.37945984601,13.758801460266113,13.766949653625488,0.07348502427339554,0.21391795575618744
59209.37945984601,13.758801460266113,13.766949653625488,0.07348502427339554,0.21391795575618744
59309.37945984601,13.758801460266113,13.766949653625488,0.07348502427339554,0.21391795575618744
59409.37945984601,13.758801460266113,13.766949653625488,0.07348502427339554,0.21391795575618744
59509.37945984601,13.758801460266113,13.766949653625488,0.07348502427339554,0.21391795575618744
59609.37945984601,13.758801460266113,13.766949653625488,0.07348502427339554,0.21391795575618744
59709.37945984601,13.758801460266113,13.766949653625488,0.07348502427339554,0.21391795575618744
59809.37945984601,13.758801460266113,13.766949653625488,0.07348502427339554,0.21391795575618744
59909.37945984601,13.758801460266113,13.766949653625488,0.07348502427339554,0.21391795575618744
60009.37945984601,13.758801460266113,13.766949653625488,0.07348502427339554,0.21391795575618744
60109.37945984601,13.610243797302246,13.528783798217773,0.07503871619701385,0.21742944419384003
60209.37945984601,13.338345527648926,13.473995208740234,0.07503871619701385,0.21742944419384003
60309.37945984601,13.139452934265137,13.446062088012695,0.07349282503128052,0.21912342309951782
60409.37945984601,13.139452934265137,13.446062088012695,0.07349282503128052,0.21912342309951782
60509.37945984601,13.139452934265137,13.446062088012695,0.07349282503128052,0.21912342309951782
60609.37945984601,13.139452934265137,13.446062088012695,0.07349282503128052,0.21912342309951782
60709.37945984601,13.139452934265137,13.446062088012695,0.07349282503128052,0.21912342309951782
60809.37945984601,13.139452934265137,13.446062088012695,0.07349282503128052,0.21912342309951782
60909.37945984601,13.139452934265137,13.446062088012695,0.07349282503128052,0.21912342309951782
61009.37945984601,13.139452934265137,13.446062088012695,0.07349282503128052,0.21912342309951782
61109.37945984601,13.139452934265137,13.446062088012695,0.07349282503128052,0.21912342309951782
61209.37945984601,13.139452934265137,13.446062088012695,0.07349282503128052,0.21912342309951782
61309.37945984601,13.139452934265137,13.446062088012695,0.07349282503128052,0.21912342309951782
61409.37945984601,13.139452934265137,13.446062088012695,0.07349282503128052,0.21912342309951782
61509.37945984601,13.47651195526123,13.304916381835938,0.08117280155420303,0.220005601644516
61609.37945984601,13.361533164978027,13.23177719116211,0.08117280155420303,0.220005601644516
61709.37945984601,13.361533164978027,13.23177719116211,0.08117280155420303,0.220005601644516
61809.37945984601,13.361533164978027,13.23177719116211,0.08117280155420303,0.220005601644516
61909.37945984601,13.361533164978027,13.23177719116211,0.08117280155420303,0.220005601644516
62009.37945984601,13.361533164978027,13.23177719116211,0.08117280155420303,0.220005601644516
62109.37945984601,13.361533164978027,13.23177719116211,0.08117280155420303,0.220005601644516
62209.37945984601,13.361533164978027,13.23177719116211,0.08117280155420303,0.220005601644516
62309.37945984601,13.361533164978027,13.23177719116211,0.08117280155420303,0.220005601644516
62409.37945984601,13.361533164978027,13.23177719116211,0.08117280155420303,0.220005601644516
62509.37945984601,13.361533164978027,13.23177719116211,0.08117280155420303,0.220005601644516
62609.37945984601,13.361533164978027,13.23177719116211,0.08117280155420303,0.220005601644516
62709.37945984601,12.982131004333496,12.958698272705078,0.07691629976034164,0.22365666925907135
62809.37945984601,12.982131004333496,12.958698272705078,0.07691629976034164,0.22365666925907135
62909.37945984601,12.982131004333496,12.958698272705078,0.07691629976034164,0.22365666925907135
63009.37945984601,12.982131004333496,12.958698272705078,0.07691629976034164,0.22365666925907135
63109.37945984601,12.982131004333496,12.958698272705078,0.07691629976034164,0.22365666925907135
63209.37945984601,12.982131004333496,12.958698272705078,0.07691629976034164,0.22365666925907135
63309.37945984601,12.982131004333496,12.958698272705078,0.07691629976034164,0.22365666925907135
63409.37945984601,12.982131004333496,12.958698272705078,0.07691629976034164,0.22365666925907135
63509.37945984601,12.982131004333496,12.958698272705078,0.07691629976034164,0.22365666925907135
63609.37945984601,12.982131004333496,12.958698272705078,0.07691629976034164,0.22365666925907135
63709.37945984601,12.982131004333496,12.958698272705078,0.07691629976034164,0.22365666925907135
63809.37945984601,12.982131004333496,12.958698272705078,0.07691629976034164,0.22365666925907135
63909.37945984601,12.735576629638672,12.877744674682617,0.07979518175125122,0.22382277250289917
64009.37945984601,12.735576629638672,12.877744674682617,0.07979518175125122,0.22382277250289917
64109.37945984601,12.735576629638672,12.877744674682617,0.07979518175125122,0.22382277250289917
64209.37945984601,12.735576629638672,12.877744674682617,0.07979518175125122,0.22382277250289917
64309.37945984601,12.735576629638672,12.877744674682617,0.07979518175125122,0.22382277250289917
64409.37945984601,12.735576629638672,12.877744674682617,0.07979518175125122,0.22382277250289917
64509.37945984601,12.735576629638672,12.877744674682617,0.07979518175125122,0.22382277250289917
64609.37945984601,12.735576629638672,12.877744674682617,0.07979518175125122,0.22382277250289917
64709.37945984601,12.735576629638672,12.877744674682617,0.07979518175125122,0.22382277250289917
64809.37945984601,12.735576629638672,12.877744674682617,0.07979518175125122,0.22382277250289917
64909.37945984601,12.735576629638672,12.877744674682617,0.07979518175125122,0.22382277250289917
65009.37945984601,12.67341136932373,12.865241050720215,0.07306746393442154,0.22403687238693237
65109.37945984601,12.607797622680664,12.892327308654785,0.08172810077667236,0.2205040156841278
65209.37945984601,12.607797622680664,12.892327308654785,0.08172810077667236,0.2205040156841278
65309.37945984601,12.607797622680664,12.892327308654785,0.08172810077667236,0.2205040156841278
65409.37945984601,12.607797622680664,12.892327308654785,0.08172810077667236,0.2205040156841278
65509.37945984601,12.607797622680664,12.892327308654785,0.08172810077667236,0.2205040156841278
65609.37945984601,12.607797622680664,12.892327308654785,0.08172810077667236,0.2205040156841278
65709.37945984601,12.607797622680664,12.892327308654785,0.08172810077667236,0.2205040156841278
65809.37945984601,12.607797622680664,12.892327308654785,0.08172810077667236,0.2205040156841278
65909.37945984601,12.607797622680664,12.892327308654785,0.08172810077667236,0.2205040156841278
66009.37945984601,12.607797622680664,12.892327308654785,0.08172810077667236,0.2205040156841278
66109.37945984601,12.607797622680664,12.892327308654785,0.08172810077667236,0.2205040156841278
66209.37945984601,12.607797622680664,12.892327308654785,0.08172810077667236,0.2205040156841278
66309.37945984601,12.555421829223633,12.918025970458984,0.0655200183391571,0.21813397109508514
66409.37945984601,12.755844116210938,12.900482177734375,0.0655200183391571,0.21813397109508514
66509.37945984601,12.755844116210938,12.900482177734375,0.0655200183391571,0.21813397109508514
66609.37945984601,12.755844116210938,12.900482177734375,0.0655200183391571,0.21813397109508514
66709.37945984601,12.755844116210938,12.900482177734375,0.0655200183391571,0.21813397109508514
66809.37945984601,12.755844116210938,12.900482177734375,0.0655200183391571,0.21813397109508514
66909.37945984601,12.755844116210938,12.900482177734375,0.0655200183391571,0.21813397109508514
67009.37945984601,12.755844116210938,12.900482177734375,0.0655200183391571,0.21813397109508514
67109.37945984601,12.755844116210938,12.900482177734375,0.0655200183391571,0.21813397109508514
67209.37945984601,12.755844116210938,12.900482177734375,0.0655200183391571,0.21813397109508514
67309.37945984601,12.755844116210938,12.900482177734375,0.0655200183391571,0.21813397109508514
67409.37945984601,12.755844116210938,12.900482177734375,0.0655200183391571,0.21813397109508514
67509.37945984601,12.387435913085938,12.819253921508789,0.07331599295139313,0.22149331867694855
67609.37945984601,12.349841117858887,12.820444107055664,0.07331599295139313,0.22149331867694855
67709.37945984601,12.349841117858887,12.820444107055664,0.07331599295139313,0.22149331867694855
67809.37945984601,12.349841117858887,12.820444107055664,0.07331599295139313,0.22149331867694855
67909.37945984601,12.349841117858887,12.820444107055664,0.07331599295139313,0.22149331867694855
68009.37945984601,12.349841117858887,12.820444107055664,0.07331599295139313,0.22149331867694855
68109.37945984601,12.349841117858887,12.820444107055664,0.07331599295139313,0.22149331867694855
68209.37945984601,12.349841117858887,12.820444107055664,0.07331599295139313,0.22149331867694855
68309.37945984601,12.349841117858887,12.820444107055664,0.07331599295139313,0.22149331867694855
68409.37945984601,12.349841117858887,12.820444107055664,0.07331599295139313,0.22149331867694855
68509.37945984601,12.349841117858887,12.820444107055664,0.07331599295139313,0.22149331867694855
68609.37945984601,12.349841117858887,12.820444107055664,0.07331599295139313,0.22149331867694855
68709.37945984601,12.352334022521973,12.797390937805176,0.06907887756824493,0.2139594405889511
68809.37945984601,12.352334022521973,12.797390937805176,0.06907887756824493,0.2139594405889511
68909.37945984601,12.352334022521973,12.797390937805176,0.06907887756824493,0.2139594405889511
69009.37945984601,12.352334022521973,12.797390937805176,0.06907887756824493,0.2139594405889511
69109.37945984601,12.352334022521973,12.797390937805176,0.06907887756824493,0.2139594405889511
69209.37945984601,12.352334022521973,12.797390937805176,0.06907887756824493,0.2139594405889511
69309.37945984601,12.352334022521973,12.797390937805176,0.06907887756824493,0.2139594405889511
69409.37945984601,12.352334022521973,12.797390937805176,0.06907887756824493,0.2139594405889511
69509.37945984601,12.352334022521973,12.797390937805176,0.06907887756824493,0.2139594405889511
69609.37945984601,12.352334022521973,12.797390937805176,0.06907887756824493,0.2139594405889511
69709.37945984601,12.352334022521973,12.797390937805176,0.06907887756824493,0.2139594405889511
69809.37945984601,12.423635482788086,12.77238941192627,0.06058507412672043,0.21171574294567108
69909.37945984601,12.42737102508545,12.485029220581055,0.048392537981271744,0.19940030574798584
70009.37945984601,12.42737102508545,12.485029220581055,0.048392537981271744,0.19940030574798584
70109.37945984601,12.42737102508545,12.485029220581055,0.048392537981271744,0.19940030574798584
70209.37945984601,12.42737102508545,12.485029220581055,0.048392537981271744,0.19940030574798584
70309.37945984601,12.42737102508545,12.485029220581055,0.048392537981271744,0.19940030574798584
70409.37945984601,12.42737102508545,12.485029220581055,0.048392537981271744,0.19940030574798584
70509.37945984601,12.42737102508545,12.485029220581055,0.048392537981271744,0.19940030574798584
70609.37945984601,12.42737102508545,12.485029220581055,0.048392537981271744,0.19940030574798584
70709.37945984601,12.42737102508545,12.485029220581055,0.048392537981271744,0.19940030574798584
70809.37945984601,12.42737102508545,12.485029220581055,0.048392537981271744,0.19940030574798584
70909.37945984601,12.42737102508545,12.485029220581055,0.048392537981271744,0.19940030574798584
71009.37945984601,12.416672706604004,12.245316505432129,0.04803193360567093,0.18930432200431824
71109.37945984601,13.156137466430664,11.940448760986328,0.09323566406965256,0.22503143548965454
71209.37945984601,13.156137466430664,11.940448760986328,0.09323566406965256,0.22503143548965454
71309.37945984601,13.156137466430664,11.940448760986328,0.09323566406965256,0.22503143548965454
71409.37945984601,13.156137466430664,11.940448760986328,0.09323566406965256,0.22503143548965454
71509.37945984601,13.156137466430664,11.940448760986328,0.09323566406965256,0.22503143548965454
71609.37945984601,13.156137466430664,11.940448760986328,0.09323566406965256,0.22503143548965454
71709.37945984601,13.156137466430664,11.940448760986328,0.09323566406965256,0.22503143548965454
71809.37945984601,13.156137466430664,11.940448760986328,0.09323566406965256,0.22503143548965454
71909.37945984601,13.156137466430664,11.940448760986328,0.09323566406965256,0.22503143548965454
72009.37945984601,13.156137466430664,11.940448760986328,0.09323566406965256,0.22503143548965454
72109.37945984601,13.156137466430664,11.940448760986328,0.09323566406965256,0.22503143548965454
72209.37945984601,13.156137466430664,11.940448760986328,0.09323566406965256,0.22503143548965454
72309.37945984601,12.266128540039062,11.004332542419434,0.15144650638103485,0.48848044872283936
72409.37945984601,12.266128540039062,11.004332542419434,0.15144650638103485,0.48848044872283936
72509.37945984601,12.266128540039062,11.004332542419434,0.15144650638103485,0.48848044872283936
72609.37945984601,12.266128540039062,11.004332542419434,0.15144650638103485,0.48848044872283936
72709.37945984601,12.266128540039062,11.004332542419434,0.15144650638103485,0.48848044872283936
72809.37945984601,12.266128540039062,11.004332542419434,0.15144650638103485,0.48848044872283936
72909.37945984601,12.266128540039062,11.004332542419434,0.15144650638103485,0.48848044872283936
73009.37945984601,12.266128540039062,11.004332542419434,0.15144650638103485,0.48848044872283936
73109.37945984601,12.266128540039062,11.004332542419434,0.15144650638103485,0.48848044872283936
73209.37945984601,12.266128540039062,11.004332542419434,0.15144650638103485,0.48848044872283936
73309.37945984601,12.266128540039062,11.004332542419434,0.15144650638103485,0.48848044872283936
73409.37945984601,11.381867408752441,10.080934524536133,-0.01966974139213562,0.05069265142083168
73509.37945984601,11.308350563049316,9.994455337524414,-0.020709939301013947,0.13044679164886475
73609.37945984601,11.308350563049316,9.994455337524414,-0.020709939301013947,0.13044679164886475
73709.37945984601,11.308350563049316,9.994455337524414,-0.020709939301013947,0.13044679164886475
73809.37945984601,11.308350563049316,9.994455337524414,-0.020709939301013947,0.13044679164886475
73909.37945984601,11.308350563049316,9.994455337524414,-0.020709939301013947,0.13044679164886475
74009.37945984601,11.308350563049316,9.994455337524414,-0.020709939301013947,0.13044679164886475
74109.37945984601,11.308350563049316,9.994455337524414,-0.020709939301013947,0.13044679164886475
74209.37945984601,11.308350563049316,9.994455337524414,-0.020709939301013947,0.13044679164886475
74309.37945984601,11.308350563049316,9.994455337524414,-0.020709939301013947,0.13044679164886475
74409.37945984601,11.308350563049316,9.994455337524414,-0.020709939301013947,0.13044679164886475
74509.37945984601,11.308350563049316,9.994455337524414,-0.020709939301013947,0.13044679164886475
74609.37945984601,11.308350563049316,9.994455337524414,-0.020709939301013947,0.13044679164886475
74709.37945984601,11.266462326049805,10.307610511779785,0.026965320110321045,0.22351518273353577
74809.37945984601,11.176859855651855,10.442225456237793,0.03402619808912277,0.20784294605255127
74909.37945984601,11.176859855651855,10.442225456237793,0.04300854727625847,0.2138521671295166
75009.37945984601,11.176859855651855,10.442225456237793,0.04300854727625847,0.2138521671295166
75109.37945984601,11.176859855651855,10.442225456237793,0.04300854727625847,0.2138521671295166
75209.37945984601,11.176859855651855,10.442225456237793,0.04300854727625847,0.2138521671295166
75309.37945984601,11.176859855651855,10.442225456237793,0.04300854727625847,0.2138521671295166
75409.37945984601,11.176859855651855,10.442225456237793,0.04300854727625847,0.2138521671295166
75509.37945984601,11.176859855651855,10.442225456237793,0.04300854727625847,0.2138521671295166
75609.37945984601,11.176859855651855,10.442225456237793,0.04300854727625847,0.2138521671295166
75709.37945984601,11.176859855651855,10.442225456237793,0.04300854727625847,0.2138521671295166
75809.37945984601,11.176859855651855,10.442225456237793,0.04300854727625847,0.2138521671295166
75909.37945984601,11.176859855651855,10.442225456237793,0.04300854727625847,0.2138521671295166
76009.37945984601,11.927447319030762,11.205633163452148,0.08042704313993454,0.24694326519966125
76109.37945984601,11.927447319030762,11.205633163452148,0.08792925626039505,0.23915107548236847
76209.37945984601,11.946393966674805,11.360048294067383,0.08792925626039505,0.23915107548236847
76309.37945984601,11.946393966674805,11.360048294067383,0.08792925626039505,0.23915107548236847
76409.37945984601,11.946393966674805,11.360048294067383,0.08792925626039505,0.23915107548236847
76509.37945984601,11.946393966674805,11.360048294067383,0.08792925626039505,0.23915107548236847
76609.37945984601,11.946393966674805,11.360048294067383,0.08792925626039505,0.23915107548236847
76709.37945984601,11.946393966674805,11.360048294067383,0.08792925626039505,0.23915107548236847
76809.37945984601,11.946393966674805,11.360048294067383,0.08792925626039505,0.23915107548236847
76909.37945984601,11.946393966674805,11.360048294067383,0.08792925626039505,0.23915107548236847
77009.37945984601,11.946393966674805,11.360048294067383,0.08792925626039505,0.23915107548236847
77109.37945984601,11.946393966674805,11.360048294067383,0.08792925626039505,0.23915107548236847
77209.37945984601,11.996169090270996,11.515247344970703,0.1102658212184906,0.2411942481994629
77309.37945984601,12.376830101013184,11.909811973571777,0.12495288252830505,0.24654702842235565
77409.37945984601,12.376830101013184,11.909811973571777,0.1269269585609436,0.2452954202890396
77509.37945984601,12.376830101013184,11.909811973571777,0.1269269585609436,0.2452954202890396
77609.37945984601,12.376830101013184,11.909811973571777,0.1269269585609436,0.2452954202890396
77709.37945984601,12.376830101013184,11.909811973571777,0.1269269585609436,0.2452954202890396
77809.37945984601,12.376830101013184,11.909811973571777,0.1269269585609436,0.2452954202890396
77909.37945984601,12.376830101013184,11.909811973571777,0.1269269585609436,0.2452954202890396
78009.37945984601,12.376830101013184,11.909811973571777,0.1269269585609436,0.2452954202890396
78109.37945984601,12.376830101013184,11.909811973571777,0.1269269585609436,0.2452954202890396
78209.37945984601,12.376830101013184,11.909811973571777,0.1269269585609436,0.2452954202890396
78309.37945984601,12.376830101013184,11.909811973571777,0.1269269585609436,0.2452954202890396
78409.37945984601,12.585099220275879,12.179952621459961,0.125769704580307,0.23800216615200043
78509.37945984601,12.585099220275879,12.179952621459961,0.13386163115501404,0.23980355262756348
78609.37945984601,12.427644729614258,12.222148895263672,0.13386163115501404,0.23980355262756348
78709.37945984601,12.427644729614258,12.222148895263672,0.13386163115501404,0.23980355262756348
78809.37945984601,12.427644729614258,12.222148895263672,0.13386163115501404,0.23980355262756348
78909.37945984601,12.427644729614258,12.222148895263672,0.13386163115501404,0.23980355262756348
79009.37945984601,12.427644729614258,12.222148895263672,0.13386163115501404,0.23980355262756348
79109.37945984601,12.427644729614258,12.222148895263672,0.13386163115501404,0.23980355262756348
79209.37945984601,12.427644729614258,12.222148895263672,0.13386163115501404,0.23980355262756348
79309.37945984601,12.427644729614258,12.222148895263672,0.13386163115501404,0.23980355262756348
79409.37945984601,12.427644729614258,12.222148895263672,0.13386163115501404,0.23980355262756348
79509.37945984601,12.427644729614258,12.222148895263672,0.13386163115501404,0.23980355262756348
79609.37945984601,12.272466659545898,12.284171104431152,0.1325032114982605,0.24298666417598724
79709.37945984601,12.43508529663086,12.467833518981934,0.13641682267189026,0.24279864132404327
79809.37945984601,12.43508529663086,12.467833518981934,0.13641682267189026,0.24279864132404327
79909.37945984601,12.43508529663086,12.467833518981934,0.13641682267189026,0.24279864132404327
80009.37945984601,12.43508529663086,12.467833518981934,0.13641682267189026,0.24279864132404327
80109.37945984601,12.43508529663086,12.467833518981934,0.13641682267189026,0.24279864132404327
80209.37945984601,12.43508529663086,12.467833518981934,0.13641682267189026,0.24279864132404327
80309.37945984601,12.43508529663086,12.467833518981934,0.13641682267189026,0.24279864132404327
80409.37945984601,12.43508529663086,12.467833518981934,0.13641682267189026,0.24279864132404327
80509.37945984601,12.43508529663086,12.467833518981934,0.13641682267189026,0.24279864132404327
80609.37945984601,12.43508529663086,12.467833518981934,0.13641682267189026,0.24279864132404327
80709.37945984601,12.43508529663086,12.467833518981934,0.13641682267189026,0.24279864132404327
80809.37945984601,12.305902481079102,12.490249633789062,0.1462334394454956,0.23942098021507263
80909.37945984601,12.626502990722656,12.323688507080078,0.08635244518518448,0.24111595749855042
81009.37945984601,12.450698852539062,12.267009735107422,0.08393533527851105,0.24138621985912323
81109.37945984601,12.450698852539062,12.267009735107422,0.08393533527851105,0.24138621985912323
81209.37945984601,12.186073303222656,12.217813491821289,0.08336341381072998,0.2422991842031479
81309.37945984601,12.186073303222656,12.217813491821289,0.08336341381072998,0.2422991842031479
81409.37945984601,12.186073303222656,12.217813491821289,0.08336341381072998,0.2422991842031479
81509.37945984601,12.186073303222656,12.217813491821289,0.08336341381072998,0.2422991842031479
81609.37945984601,12.186073303222656,12.217813491821289,0.08336341381072998,0.2422991842031479
81709.37945984601,12.186073303222656,12.217813491821289,0.08336341381072998,0.2422991842031479
81809.37945984601,12.186073303222656,12.217813491821289,0.08336341381072998,0.2422991842031479
81909.37945984601,12.186073303222656,12.217813491821289,0.08336341381072998,0.2422991842031479
82009.37945984601,12.186073303222656,12.217813491821289,0.08336341381072998,0.2422991842031479
82109.37945984601,12.186073303222656,12.217813491821289,0.08336341381072998,0.2422991842031479
82209.37945984601,12.186073303222656,12.217813491821289,0.08336341381072998,0.2422991842031479
82309.37945984601,12.053668022155762,12.233015060424805,0.07637731730937958,0.2399602234363556
82409.37945984601,12.242659568786621,12.24576187133789,0.07749306410551071,0.240494042634964
82509.37945984601,12.242659568786621,12.24576187133789,0.07749306410551071,0.240494042634964
82609.37945984601,12.242659568786621,12.24576187133789,0.07749306410551071,0.240494042634964
82709.37945984601,12.242659568786621,12.24576187133789,0.07749306410551071,0.240494042634964
82809.37945984601,12.242659568786621,12.24576187133789,0.07749306410551071,0.240494042634964
82909.37945984601,12.242659568786621,12.24576187133789,0.07749306410551071,0.240494042634964
83009.37945984601,12.242659568786621,12.24576187133789,0.07749306410551071,0.240494042634964
83109.37945984601,12.242659568786621,12.24576187133789,0.07749306410551071,0.240494042634964
83209.37945984601,12.242659568786621,12.24576187133789,0.07749306410551071,0.240494042634964
83309.37945984601,12.242659568786621,12.24576187133789,0.07749306410551071,0.240494042634964
83409.37945984601,12.242659568786621,12.24576187133789,0.07749306410551071,0.240494042634964
83509.37945984601,12.242659568786621,12.24576187133789,0.07749306410551071,0.240494042634964
83609.37945984601,12.242659568786621,12.24576187133789,0.07749306410551071,0.240494042634964
83709.37945984601,12.09118938446045,12.068401336669922,0.0780637338757515,0.24367071688175201
83809.37945984601,12.09118938446045,12.068401336669922,0.0780637338757515,0.24367071688175201
83909.37945984601,12.09118938446045,12.068401336669922,0.0780637338757515,0.24367071688175201
